<?xml version="1.0" encoding="UTF-8"?>
<kml xmlns="http://www.opengis.net/kml/2.2">
<Document>
	<Placemark>
		<name>Ruta de los Caminos Rurales de La Carrera y Hevia</name>
		<description>Ruta entre caminos rurales de Siero, partiendo desde Noreña hacia La Carrera y Hevia, atravesando zonas ganaderas y bosques de castaños y robles.</description>
		<Point>
			<coordinates>-5.6905,43.3912,282</coordinates>
		</Point>
	</Placemark>
	<Placemark>
		<name>Molino de Fonciello</name>
		<description>Antiguo molino de agua restaurado, junto a un pequeño arroyo.</description>
		<Point>
			<coordinates>-5.6842,43.3886,270</coordinates>
		</Point>
	</Placemark>
	<Placemark>
		<name>Área de descanso La Carrera</name>
		<description>Zona recreativa con bancos, sombra y vistas a los prados de Siero.</description>
		<Point>
			<coordinates>-5.6775,43.3819,260</coordinates>
		</Point>
	</Placemark>
	<Placemark>
		<name>Iglesia de Hevia</name>
		<description>Templo parroquial rodeado de árboles centenarios.</description>
		<Point>
			<coordinates>-5.6813,43.3741,275</coordinates>
		</Point>
	</Placemark>
	<Placemark>
		<name>Fuente de La Peña</name>
		<description>Fuente con agua fresca entre castaños, lugar ideal para descansar.</description>
		<Point>
			<coordinates>-5.6901,43.3810,273</coordinates>
		</Point>
	</Placemark>
	<Placemark>
		<name>Plaza de la Cruz (Final)</name>
		<description>Regreso al punto inicial en el centro de Noreña.</description>
		<Point>
			<coordinates>-5.6905,43.3912,282</coordinates>
		</Point>
	</Placemark>
</Document>
</kml>